[
  {"name":"서울특별시","lat":37.5665,"lon":126.9780,"area_km2":605},
  {"name":"부산광역시","lat":35.1796,"lon":129.0756,"area_km2":770},
  {"name":"대구광역시","lat":35.8714,"lon":128.6014,"area_km2":884},
  {"name":"인천광역시","lat":37.4563,"lon":126.7052,"area_km2":1063},
  {"name":"광주광역시","lat":35.1595,"lon":126.8526,"area_km2":501},
  {"name":"대전광역시","lat":36.3504,"lon":127.3845,"area_km2":540},
  {"name":"울산광역시","lat":35.5384,"lon":129.3114,"area_km2":1062},
  {"name":"세종특별자치시","lat":36.4800,"lon":127.2890,"area_km2":465},

  {"name":"수원시","lat":37.2636,"lon":127.0286,"area_km2":121},
  {"name":"성남시","lat":37.4200,"lon":127.1268,"area_km2":142},
  {"name":"의정부시","lat":37.7381,"lon":127.0337,"area_km2":82},
  {"name":"안양시","lat":37.3943,"lon":126.9568,"area_km2":58},
  {"name":"부천시","lat":37.5034,"lon":126.7660,"area_km2":53},
  {"name":"광명시","lat":37.4787,"lon":126.8640,"area_km2":38},
  {"name":"평택시","lat":36.9921,"lon":127.1127,"area_km2":454},
  {"name":"동두천시","lat":37.9036,"lon":127.0606,"area_km2":95},
  {"name":"안산시","lat":37.3236,"lon":126.8219,"area_km2":147},
  {"name":"고양시","lat":37.6583,"lon":126.8320,"area_km2":268},
  {"name":"과천시","lat":37.4292,"lon":126.9877,"area_km2":36},
  {"name":"구리시","lat":37.5945,"lon":127.1295,"area_km2":33},
  {"name":"남양주시","lat":37.6360,"lon":127.2165,"area_km2":458},
  {"name":"오산시","lat":37.1498,"lon":127.0772,"area_km2":43},
  {"name":"시흥시","lat":37.3800,"lon":126.8030,"area_km2":135},
  {"name":"군포시","lat":37.3615,"lon":126.9351,"area_km2":36},
  {"name":"의왕시","lat":37.3446,"lon":126.9679,"area_km2":54},
  {"name":"하남시","lat":37.5392,"lon":127.2147,"area_km2":93},
  {"name":"용인시","lat":37.2411,"lon":127.1776,"area_km2":591},
  {"name":"파주시","lat":37.7600,"lon":126.7799,"area_km2":673},
  {"name":"이천시","lat":37.2722,"lon":127.4352,"area_km2":461},
  {"name":"안성시","lat":37.0079,"lon":127.2797,"area_km2":554},
  {"name":"김포시","lat":37.6150,"lon":126.7160,"area_km2":276},
  {"name":"화성시","lat":37.1994,"lon":126.8318,"area_km2":689},
  {"name":"광주시","lat":37.4295,"lon":127.2554,"area_km2":430},
  {"name":"양주시","lat":37.7855,"lon":127.0458,"area_km2":310},
  {"name":"포천시","lat":37.8940,"lon":127.1998,"area_km2":826},
  {"name":"여주시","lat":37.2983,"lon":127.6377,"area_km2":608},
  {"name":"연천군","lat":38.0968,"lon":127.0748,"area_km2":696},
  {"name":"가평군","lat":37.8315,"lon":127.5102,"area_km2":843},
  {"name":"양평군","lat":37.4916,"lon":127.4877,"area_km2":877},

  {"name":"춘천시","lat":37.8813,"lon":127.7298,"area_km2":1116},
  {"name":"원주시","lat":37.3422,"lon":127.9201,"area_km2":867},
  {"name":"강릉시","lat":37.7519,"lon":128.8762,"area_km2":1040},
  {"name":"동해시","lat":37.5247,"lon":129.1144,"area_km2":180},
  {"name":"태백시","lat":37.1640,"lon":128.9853,"area_km2":304},
  {"name":"속초시","lat":38.2049,"lon":128.5912,"area_km2":105},
  {"name":"삼척시","lat":37.4498,"lon":129.1656,"area_km2":1186},
  {"name":"홍천군","lat":37.6975,"lon":127.8889,"area_km2":1820},
  {"name":"횡성군","lat":37.4916,"lon":127.9846,"area_km2":997},
  {"name":"영월군","lat":37.1836,"lon":128.4617,"area_km2":1127},
  {"name":"평창군","lat":37.3703,"lon":128.3895,"area_km2":1464},
  {"name":"정선군","lat":37.3803,"lon":128.6601,"area_km2":1218},
  {"name":"철원군","lat":38.1460,"lon":127.3130,"area_km2":900},
  {"name":"화천군","lat":38.1065,"lon":127.7082,"area_km2":910},
  {"name":"양구군","lat":38.1062,"lon":127.9896,"area_km2":701},
  {"name":"인제군","lat":38.0691,"lon":128.1710,"area_km2":1646},
  {"name":"고성군","lat":38.3804,"lon":128.4672,"area_km2":664},
  {"name":"양양군","lat":38.0757,"lon":128.6189,"area_km2":629},

  {"name":"청주시","lat":36.6424,"lon":127.4890,"area_km2":940},
  {"name":"충주시","lat":36.9910,"lon":127.9259,"area_km2":983},
  {"name":"제천시","lat":37.1323,"lon":128.1908,"area_km2":883},
  {"name":"보은군","lat":36.4895,"lon":127.7297,"area_km2":584},
  {"name":"옥천군","lat":36.3063,"lon":127.5706,"area_km2":537},
  {"name":"영동군","lat":36.1749,"lon":127.7761,"area_km2":844},
  {"name":"증평군","lat":36.7852,"lon":127.5816,"area_km2":82},
  {"name":"진천군","lat":36.8556,"lon":127.4345,"area_km2":407},
  {"name":"괴산군","lat":36.8150,"lon":127.7876,"area_km2":842},
  {"name":"음성군","lat":36.9399,"lon":127.6904,"area_km2":520},
  {"name":"단양군","lat":36.9847,"lon":128.3657,"area_km2":782},

  {"name":"천안시","lat":36.8151,"lon":127.1139,"area_km2":636},
  {"name":"공주시","lat":36.4467,"lon":127.1191,"area_km2":864},
  {"name":"보령시","lat":36.3334,"lon":126.6128,"area_km2":577},
  {"name":"아산시","lat":36.7898,"lon":127.0023,"area_km2":542},
  {"name":"서산시","lat":36.7848,"lon":126.4503,"area_km2":741},
  {"name":"논산시","lat":36.1872,"lon":127.0990,"area_km2":555},
  {"name":"계룡시","lat":36.2748,"lon":127.2491,"area_km2":61},
  {"name":"당진시","lat":36.8895,"lon":126.6454,"area_km2":695},
  {"name":"금산군","lat":36.1088,"lon":127.4880,"area_km2":577},
  {"name":"부여군","lat":36.2754,"lon":126.9099,"area_km2":624},
  {"name":"서천군","lat":36.0786,"lon":126.6920,"area_km2":365},
  {"name":"청양군","lat":36.4593,"lon":126.8025,"area_km2":479},
  {"name":"홍성군","lat":36.6008,"lon":126.6607,"area_km2":444},
  {"name":"예산군","lat":36.6802,"lon":126.8449,"area_km2":542},
  {"name":"태안군","lat":36.7454,"lon":126.2981,"area_km2":505},

  {"name":"전주시","lat":35.8242,"lon":127.1480,"area_km2":206},
  {"name":"군산시","lat":35.9676,"lon":126.7368,"area_km2":374},
  {"name":"익산시","lat":35.9483,"lon":126.9576,"area_km2":507},
  {"name":"정읍시","lat":35.5699,"lon":126.8559,"area_km2":693},
  {"name":"남원시","lat":35.4162,"lon":127.3897,"area_km2":752},
  {"name":"김제시","lat":35.8034,"lon":126.8807,"area_km2":546},
  {"name":"완주군","lat":35.9049,"lon":127.1615,"area_km2":821},
  {"name":"진안군","lat":35.7919,"lon":127.4249,"area_km2":789},
  {"name":"무주군","lat":36.0069,"lon":127.6604,"area_km2":632},
  {"name":"장수군","lat":35.6474,"lon":127.5207,"area_km2":535},
  {"name":"임실군","lat":35.6177,"lon":127.2886,"area_km2":597},
  {"name":"순창군","lat":35.3743,"lon":127.1374,"area_km2":496},
  {"name":"고창군","lat":35.4357,"lon":126.7021,"area_km2":607},
  {"name":"부안군","lat":35.7296,"lon":126.7325,"area_km2":493},

  {"name":"목포시","lat":34.8118,"lon":126.3922,"area_km2":47},
  {"name":"여수시","lat":34.7604,"lon":127.6622,"area_km2":512},
  {"name":"순천시","lat":34.9506,"lon":127.4873,"area_km2":910},
  {"name":"나주시","lat":35.0160,"lon":126.7108,"area_km2":608},
  {"name":"광양시","lat":34.9433,"lon":127.6951,"area_km2":455},
  {"name":"담양군","lat":35.3215,"lon":126.9882,"area_km2":455},
  {"name":"곡성군","lat":35.2822,"lon":127.2920,"area_km2":547},
  {"name":"구례군","lat":35.2024,"lon":127.4625,"area_km2":443},
  {"name":"고흥군","lat":34.6070,"lon":127.2779,"area_km2":805},
  {"name":"보성군","lat":34.7714,"lon":127.0800,"area_km2":664},
  {"name":"화순군","lat":35.0640,"lon":126.9866,"area_km2":786},
  {"name":"장흥군","lat":34.6814,"lon":126.9073,"area_km2":620},
  {"name":"강진군","lat":34.6421,"lon":126.7677,"area_km2":500},
  {"name":"해남군","lat":34.5736,"lon":126.5990,"area_km2":1007},
  {"name":"영암군","lat":34.7999,"lon":126.6967,"area_km2":603},
  {"name":"무안군","lat":34.9901,"lon":126.4818,"area_km2":396},
  {"name":"함평군","lat":35.0645,"lon":126.5157,"area_km2":393},
  {"name":"영광군","lat":35.2771,"lon":126.5121,"area_km2":474},
  {"name":"장성군","lat":35.3013,"lon":126.7847,"area_km2":519},
  {"name":"완도군","lat":34.3103,"lon":126.7554,"area_km2":397},
  {"name":"진도군","lat":34.4870,"lon":126.2626,"area_km2":430},
  {"name":"신안군","lat":34.8260,"lon":126.1077,"area_km2":655},

  {"name":"포항시","lat":36.0190,"lon":129.3435,"area_km2":1128},
  {"name":"경주시","lat":35.8561,"lon":129.2247,"area_km2":1325},
  {"name":"김천시","lat":36.1396,"lon":128.1139,"area_km2":1009},
  {"name":"안동시","lat":36.5684,"lon":128.7294,"area_km2":1521},
  {"name":"구미시","lat":36.1194,"lon":128.3445,"area_km2":616},
  {"name":"영주시","lat":36.8058,"lon":128.6236,"area_km2":670},
  {"name":"영천시","lat":35.9733,"lon":128.9385,"area_km2":921},
  {"name":"상주시","lat":36.4108,"lon":128.1591,"area_km2":1255},
  {"name":"문경시","lat":36.5864,"lon":128.1862,"area_km2":912},
  {"name":"경산시","lat":35.8252,"lon":128.7411,"area_km2":412},
  {"name":"군위군","lat":36.2395,"lon":128.5728,"area_km2":614},
  {"name":"의성군","lat":36.3524,"lon":128.6965,"area_km2":1176},
  {"name":"청송군","lat":36.4358,"lon":129.0567,"area_km2":846},
  {"name":"영양군","lat":36.6671,"lon":129.1134,"area_km2":815},
  {"name":"영덕군","lat":36.4153,"lon":129.3655,"area_km2":742},
  {"name":"청도군","lat":35.6474,"lon":128.7342,"area_km2":697},
  {"name":"고령군","lat":35.7274,"lon":128.2636,"area_km2":384},
  {"name":"성주군","lat":35.9186,"lon":128.2831,"area_km2":616},
  {"name":"칠곡군","lat":35.9953,"lon":128.4015,"area_km2":452},
  {"name":"예천군","lat":36.6575,"lon":128.4505,"area_km2":661},
  {"name":"봉화군","lat":36.8937,"lon":128.7321,"area_km2":1202},
  {"name":"울진군","lat":36.9932,"lon":129.4003,"area_km2":989},
  {"name":"울릉군","lat":37.4838,"lon":130.9057,"area_km2":73},

  {"name":"창원시","lat":35.2280,"lon":128.6811,"area_km2":747},
  {"name":"진주시","lat":35.1799,"lon":128.1076,"area_km2":713},
  {"name":"통영시","lat":34.8544,"lon":128.4335,"area_km2":240},
  {"name":"사천시","lat":34.9738,"lon":128.0645,"area_km2":398},
  {"name":"김해시","lat":35.2283,"lon":128.8894,"area_km2":463},
  {"name":"밀양시","lat":35.5037,"lon":128.7463,"area_km2":799},
  {"name":"거제시","lat":34.8800,"lon":128.6210,"area_km2":402},
  {"name":"양산시","lat":35.3400,"lon":129.0337,"area_km2":487},
  {"name":"의령군","lat":35.3220,"lon":128.2618,"area_km2":482},
  {"name":"함안군","lat":35.2727,"lon":128.4076,"area_km2":420},
  {"name":"창녕군","lat":35.5446,"lon":128.4908,"area_km2":534},
  {"name":"고성군","lat":34.9743,"lon":128.3228,"area_km2":519},
  {"name":"남해군","lat":34.8373,"lon":127.8923,"area_km2":356},
  {"name":"하동군","lat":35.0672,"lon":127.7516,"area_km2":676},
  {"name":"산청군","lat":35.4146,"lon":127.8737,"area_km2":794},
  {"name":"함양군","lat":35.5203,"lon":127.7253,"area_km2":725},
  {"name":"거창군","lat":35.6867,"lon":127.9096,"area_km2":804},
  {"name":"합천군","lat":35.5667,"lon":128.1658,"area_km2":984},

  {"name":"제주시","lat":33.5097,"lon":126.5219,"area_km2":978},
  {"name":"서귀포시","lat":33.2541,"lon":126.5600,"area_km2":875}
]
